[
  {
    "name": "Whitney Museum",
    "latitude": 40.7396,
    "longitude": -74.0089
  },
  {
    "name": "Brooklyn Museum",
    "latitude": 40.6712,
    "longitude": -73.9636
  },
  {
    "name": "The Louvre",
    "latitude": 48.8606,
    "longitude": 2.3376
  },
  {
    "name": "National Palace Museum",
    "latitude": 25.1024,
    "longitude": 121.5485
  },
  {
    "name": "Apartheid Museum",
    "latitude": -26.2379,
    "longitude": 28.0084
  },
  {
    "name": "Museum of Modern Art",
    "latitude": 40.7614,
    "longitude": -73.9776
  },
  {
    "name": "MALBA",
    "latitude": -34.5771,
    "longitude": -58.4036
  },
  {
    "name": "Metropolitan Museum of Art",
    "latitude": 40.7794,
    "longitude": -73.9632
  },
  {
    "name": "Frick Collection",
    "latitude": 40.7712,
    "longitude": -73.9674
  }
]
